Latitude,Longitude,Name
37.55,-117.915,SNM3HC
37.688,-116.703,TEDCSZ
37.051,-116.687,Q659WC
37.121,-117.06,FF2GPL
37.789,-116.939,9VEHWY
37.068,-117.038,VX1UF0
37.499,-116.883,NLIE6E
37.164,-116.775,NUJRDN
37.776,-117.457,WG5UBQ
37.46,-117.366,UJW1KG
37.173,-117.582,WIUAB0
37.833,-117.335,CPEEQY
37.62,-117.961,8VEAIC
37.399,-117.479,9RCQI2
37.645,-116.858,IM8R6T
37.425,-117.14,E5OR7K
37.617,-117.957,J9WKJA
37.632,-117.681,EQ8NHW
37.16,-117.192,ZNE4AL
37.197,-116.764,UKDXGV
37.635,-118.154,QBOYT1
37.379,-117.035,EOIHWJ
37.589,-117.497,KZ3FU1
37.634,-117.058,5X0HNL
37.659,-118.011,M3120C
37.778,-116.852,TSQKA2
37.344,-117.091,Z9826X
37.484,-116.875,5QU3GA
37.582,-116.878,UTFSG7
37.279,-116.579,1MN72M
37.424,-117.051,H5EWFR
37.763,-117.19,FHIL50
37.992,-118.03,9Y45LI
37.634,-117.741,O85GBN
37.102,-117.052,8LT1LS
37.758,-118.093,M8HWYV
37.157,-117.201,GLEXMJ
37.124,-116.666,MBKUWU
37.362,-116.892,DCPQEI
37.659,-116.699,NCXAHG
37.921,-117.123,I0W78P
37.64,-117.293,1MARXW
37.477,-116.858,8H5K7F
37.21,-116.83,Z4BWJK
37.626,-117.056,ATV0ME
37.904,-116.897,AGP5MW
37.967,-117.476,N02HCN
37.696,-116.983,AQUPMY
37.039,-117.71,4WA8XY
37.399,-117.846,52F8OV
37.151,-117.057,MMCQ0V
37.184,-118.146,KNUW96
37.106,-117.237,W1F82S
37.109,-117.234,AW3PP0
37.725,-116.639,MEWSAO
37.193,-117.209,5K46ZQ
37.126,-116.788,GUW396
37.591,-117.112,J9X0MI
37.821,-117.116,3ZH9TN
37.553,-117.084,YGVAZV
37.541,-117.093,S8AYZ7
37.528,-117.2,LKW1CK
37.79,-117.331,GYOL6K
37.318,-116.757,YKN5TU
37.131,-117.044,DSR2F3
37.751,-116.685,ML4YIN
37.318,-117.027,KJMZQX
37.129,-117.017,KXBDVC
37.234,-117.982,YE1OWU
37.631,-117.713,2YEATM
37.645,-116.683,W03XO9
37.197,-118.03,5LYXF0
37.434,-117.489,CKA1MK
37.388,-117.487,21PBUW
37.142,-117.212,DT3CXW
37.601,-116.666,RDSFXF
37.112,-117.746,UZ30Y2
37.841,-117.112,J5TSAH
37.615,-117.062,E8K1DN
37.837,-117.316,BJJKTW
37.503,-117.212,I7MEDG
37.786,-116.814,1OLVQU
37.764,-116.679,G1815V
37.407,-117.004,VFX87Z
37.408,-117.256,BBUVKR
37.22,-117.253,5MZF6U
37.338,-117.144,PYJWXW
37.617,-117.542,62SILV
37.383,-117.034,E7K97O
37.66,-116.885,JOJTSQ
37.181,-117.198,TUB1VX
37.269,-117.173,QQ2G38
37.825,-116.762,S6Q8FP
37.71,-118.114,KL6Q51
37.721,-116.7,FFYIKS
37.5,-117.219,AEU9DV
37.761,-116.809,O7D96G
37.675,-116.959,QP5VBA
37.504,-116.796,AFFFID
37.646,-117.541,CE1UYV
37.535,-117.414,5LJAJX
37.244,-117.247,KME8GC
37.774,-117.377,HUZUHV
37.137,-117.048,EM6JUL
37.173,-117.133,JNE47I
37.456,-117.908,7U9SW3
37.987,-118.378,I718FV
37.84,-116.945,J7RO2B
37.282,-117.953,QNGNCO
37.371,-117.044,ZIUWD5
37.405,-117.217,BFK8E0
37.636,-116.959,APCGXS
37.47,-116.687,JYPMFN
37.108,-117.066,B8FQFW
37.091,-116.868,YBH5L6
37.179,-116.615,3IHXVC
37.1,-117.361,E1XVWG
37.279,-117.048,ARNN21
37.364,-118.3,0E2EKF
37.772,-116.72,NDEXHN
37.285,-118.253,XI5FZQ
37.096,-117.032,SXCZKJ
37.092,-117.041,P1PDJZ
37.213,-117.271,8HXUVF
37.427,-117.939,93DQTA
37.462,-117.241,D9MWRN
37.131,-117.371,CWG13Z
37.772,-117.391,VJKO0E
37.292,-117.023,9UHTLJ
37.71,-117.982,Q6WS8O
37.229,-117.882,YUJUQH
37.12,-117.809,BG7WD2
37.191,-118.041,YVXZG2
37.645,-117.199,X7NJTC
37.102,-117.303,ULB878
37.079,-116.84,XQK1KB
37.625,-117.083,NXAWOY
37.668,-118.01,5E9JHQ
37.438,-117.445,ZIWGVN
37.451,-116.896,6SJZB9
37.232,-117.237,DJG091
37.783,-117.2,WRV03E
37.395,-116.844,U9DGY3
37.725,-118.105,JCXFFH
37.838,-116.971,3Y80MU
37.303,-117.077,4F2DPQ
37.787,-116.813,YZD33Y
37.427,-116.896,UP0XDC
37.192,-116.644,S9B37P
37.341,-117.117,6JQYLP
37.642,-117.127,KX3B00
37.172,-116.847,X57OOA
37.619,-117.332,3UG36P
37.453,-117.42,2IWKC3
37.998,-118.36,SJQZAA
37.619,-117.792,1PZPOZ
37.473,-116.986,GQLCO7
37.263,-117.193,MUCJT3
37.179,-116.824,DN5DOJ
37.698,-117.721,NAVJOX
37.729,-117.027,JZSHA6
37.246,-117.214,RI427E
37.649,-116.685,28AMVH
37.098,-117.295,WRSQU1
37.737,-116.66,EG6P4W
37.058,-117.214,VT338D
37.207,-116.926,BJTFKD
37.758,-117,MYK677
37.498,-116.854,TIRPMN
37.827,-116.913,X0G137
37.106,-116.767,8OTOHH
37.636,-117.986,2VV2TS
37.982,-118.368,5ZWO9F
37.291,-117.016,HM6V82
37.197,-116.83,12PHR4
37.383,-116.966,CFFISQ
37.792,-117.427,P1QAEP
37.191,-117.137,CTKSIL
37.461,-117.144,PEYQXB
37.732,-117.002,RK3BK4
37.779,-116.679,49QHAZ
37.609,-117.586,8S5WGD
37.853,-118.133,RHJE4X
37.738,-117.498,UPGX93
37.815,-117.331,0FNXOW
37.063,-116.775,AFXB4I
37.107,-117.732,I9ELPR
37.137,-117.055,4JQYDL
37.729,-117.85,TEMIR6
37.44,-117.097,Q2JBRL
37.61,-117.54,WVIUPS
37.072,-116.795,HY4GZU
37.962,-118.065,DDYJAV
37.051,-116.807,HI3RV8
37.283,-117.212,1QUKWB
37.276,-117.895,NEA9GH
37.827,-117.435,4TYV65
37.354,-117.132,YXOMOJ
37.776,-116.679,LIV5O3
37.853,-118.142,TSW7UG
37.353,-117.101,BQ7D4S
37.406,-117.272,OO31WA
37.336,-117.17,8ODE1I
37.06,-116.978,JUVJ37
37.189,-117.173,K8GIIJ
37.607,-117.957,EITP50
37.394,-117.45,DTCQ57
37.854,-118.123,WHU766
37.458,-117.146,M4KOY1
37.655,-116.664,59A0ZN
37.845,-116.775,GCI99Q
37.091,-117.277,XN3OTN
37.649,-117.095,3TSUS4
37.916,-117.379,6U6QN4
37.115,-117.196,RYDN40
37.644,-117.198,8XH9LZ
37.82,-117.175,P0UHE9
37.128,-117.068,BGKC4T
37.42,-117.389,CY3F6N
37.115,-117.552,SN7EYZ
37.618,-117.318,U2CA63
37.873,-117.646,AJZCI3
37.065,-117.29,Q3GVNC
37.763,-117.5,F5EIS9
37.659,-117.719,VMISPD
37.082,-117.04,2O4EJN
37.426,-116.947,Q7KOTB
37.518,-117.155,PFZWLI
37.258,-117.958,4ED8CV
37.651,-116.857,DJBR5Q
37.418,-117.042,VYOWBG
37.12,-116.855,JZ2BHM
37.071,-117.338,EPK2IR
37.784,-118.439,FKDD6I
37.779,-116.728,BG0KWJ
37.418,-117.208,AG1QCH
37.298,-117.098,4EE2XT
37.765,-118.149,L01CEI
37.103,-117.037,SBIWLH
37.982,-118.006,NX82YW
37.603,-116.916,RYQT0Y
37.206,-116.805,UQZZK5
37.164,-117.329,CA668K
37.399,-117.483,Q7AIQ7
37.191,-117.18,6N31XZ
37.676,-117.73,VL4TMN
37.466,-117.147,7S59OV
37.681,-117.031,1JKAB6
37.196,-116.828,9NA7SM
37.963,-116.571,W5MXQT
37.327,-116.943,J2N7RM
37.53,-117.962,DHPNNK
37.675,-116.699,CLWA64
37.994,-118.03,30FA0Y
37.37,-117.032,TALVWJ
37.444,-117.799,3F5CW3
37.808,-117.154,3EADO0
37.584,-117.917,GVB3AA
37.627,-116.953,R758LC
37.981,-118.279,HUSGII
37.762,-117.364,W40IDV
37.685,-117.833,M6UMAD
37.496,-117.774,5OYIDW
37.174,-117.097,9I12JW
37.298,-117.149,G2S6LE
37.647,-117.971,YDS4OE
37.533,-116.958,0F7IL0
37.672,-117.298,GY22JB
37.063,-117.248,UEYLNL
37.268,-117.773,DHGKEJ
37.571,-117.072,TSS3IJ
37.072,-116.822,9YV1UP
37.463,-116.712,KGZOEW
37.792,-117.154,M13XE2
37.117,-117.052,AVC7UY
37.19,-117.136,GV7VAM
37.22,-117.257,W8VJGO
37.673,-118.006,K6K8ZS
37.777,-117.029,LIALYA
37.695,-117.727,2SOQGO
37.675,-116.875,8YG356
37.355,-117.086,C4KP2N
37.164,-117.071,B46ZH8
37.101,-116.879,Z4OP51
37.534,-117.117,0KSV4U
37.167,-117.261,88XMR2
37.165,-117.34,XWC3TY
37.082,-117.291,139KKE
37.123,-117.222,7ZCNXM
37.819,-116.764,NYIDY3
37.105,-117.279,X8SX7K
37.756,-116.966,P3HPP3
37.417,-117.153,807CRY
37.075,-116.743,MEP8EI
37.782,-118.439,P2ZINU
37.81,-117.28,DZ8JOX
37.833,-116.777,BW6TSH
37.638,-116.805,B2D2CC
37.801,-116.752,ZIMOA9
37.695,-116.918,H7D1V8
37.065,-117.234,1PL2RE
37.755,-116.791,ZB5U7Z
37.162,-118.168,MFXG38
37.199,-116.811,9LCBPH
37.828,-116.913,ALY4B5
37.276,-117,DJS29G
37.615,-117.608,QBWX5N
37.876,-117.461,9VOEOF
37.435,-116.636,1UQJXI
37.535,-117.891,4MODJD
37.766,-116.807,7L7MXK
37.564,-117.094,VCXMDM
37.166,-116.833,25EA8I
37.745,-116.717,FRWXRI
37.311,-117.057,0Y699U
37.639,-117.859,883TMJ
37.71,-116.7,IJ46S2
37.798,-117.405,W5CLHL
37.952,-116.569,7YX612
37.068,-117.239,BD15T8
37.144,-117.277,G0YN5Z
37.755,-116.651,5NY8RB
37.912,-118.355,ALH0K1
37.317,-117.111,PXXE58
37.178,-117.226,W2OBOC
37.401,-117.455,HG7J9W
37.302,-117.162,O3XS8L
37.062,-116.645,KEG3ZU
37.213,-117.188,241NY3
37.084,-117.279,M9DGLF
37.541,-117.99,GO8FCE
37.791,-117.344,I0X8AU
37.592,-116.663,APPTMI
37.171,-116.812,P5CPKW
37.846,-118.225,K9V9Z9
37.058,-117.252,2DWJD0
37.558,-117.061,4WY0AW
37.529,-117.437,O6S1EL
37.801,-117.332,RL6TTT
37.412,-117.137,W1C57W
37.306,-117.045,82P30E
37.448,-116.706,YQRNOT
37.054,-117.033,GYRQ19
37.176,-117.112,HA0JRZ
37.067,-117.208,INGHTQ
37.65,-117.189,XHEBFN
37.269,-117.904,73ACIJ
37.764,-117.368,YY37BI
37.781,-117.401,NSLL2F
37.342,-117.172,ZZZELU
37.168,-116.855,8B7LCY
37.481,-116.685,OAASGC
37.795,-117.315,KH5QKF
37.262,-117.2,ESP8VD
37.133,-116.697,H1NPQC
37.174,-117.192,H26EDO
37.185,-116.814,XDI0HZ
37.807,-117.173,HPNESM
37.849,-116.786,MM4S1N
37.901,-117.461,JXPYX6
37.377,-117.039,58JS4Q
37.409,-116.867,G65OIJ
37.617,-116.698,VSUSOS
37.819,-117.296,BKPHB2
37.783,-117.094,1SQJZE
37.593,-117.204,YQRTF1
37.782,-116.744,7TLTJV
37.492,-116.847,UNXL38
37.296,-117.012,NRM8ZN
37.641,-117.204,HCW7DI
37.347,-117.148,R05QVJ
37.085,-117.078,OXIWJ5
37.347,-117.045,BDS3K6
37.096,-117.038,A333HB
37.381,-116.999,Y30RPR
37.759,-118.027,64LDDW
37.739,-118.152,9VBBQ3
37.404,-117.81,RU5EBF
37.747,-117.505,X6Z3ZK
37.285,-116.584,KFRZ4Y
37.703,-116.696,SVM1F5
37.309,-116.764,RQFSNY
37.652,-116.921,DJ4D3K
37.857,-117.433,DYILKG
37.571,-117.562,HNLLCZ
37.448,-116.709,HCBTX9
37.739,-116.976,D1HJBV
37.796,-117.309,S86YSS
37.113,-116.836,RONX6B
37.118,-116.847,0H4831
37.102,-116.749,JEKUY2
37.711,-117.255,NSBEU9
37.808,-117.288,92K8FK
37.515,-117.437,WK7EQL
37.642,-116.845,OHYLMX
37.752,-116.65,T2HHUT
37.922,-116.597,GUUL8Y
37.123,-116.784,X0SN20
37.664,-117.59,5WC7A7
37.117,-116.816,UPBEZD
37.802,-118.137,BVA29I
37.339,-117.12,JPTQ0H
37.691,-117.94,YPK485
37.151,-116.853,MIVV82
37.801,-117.174,K1OW2S
37.728,-117.039,C8D6LO
37.229,-117.158,AYRF4R
37.253,-116.773,J9EW14
37.787,-117.414,9D9ZR5
37.942,-117.497,ICM5OE
37.257,-117.138,S8EGBL
37.388,-116.996,41F9NF
37.384,-117.483,GUI8OC
37.748,-117.035,E0ECOC
37.738,-116.683,V1FMF6
37.943,-116.753,BQHGJF
37.609,-116.973,UZ2GDE
37.062,-116.835,XK47B5
37.091,-117.275,F0GAYT
37.775,-116.975,5RB0FG
37.339,-117.07,H1KYOI
37.303,-117.186,L7LK2Y
37.896,-116.659,V5FYMD
37.188,-116.619,13EPJA
37.085,-116.851,15OCP5
37.129,-117.232,OW4S9K
37.748,-117.002,R0QBXC
37.605,-117.593,O5OOXW
37.805,-116.808,WNN2ML
37.074,-117.046,68TPMI
37.189,-117.213,IMJ0C1
37.195,-116.898,PFZ6R1
37.095,-117.23,RPLTDV
37.92,-117.123,BUUY2Y
37.4,-117.136,PRHNNP
37.836,-116.966,G1MU2F
37.556,-117.305,YLMQGB
37.751,-118.129,037NJ7
37.288,-116.568,B4RCQW
37.603,-116.891,EZPL7U
37.665,-117.076,VVSEHQ
37.326,-117.094,4MBY1M
37.737,-116.992,LA1TH2
37.613,-116.929,DXVF32
37.066,-116.766,W5HOBD
37.667,-118.007,BXXEQH
37.123,-117.043,4A5L7E
37.32,-117.159,QLHOOW
37.309,-117.15,ZPHWD8
37.104,-117.012,2WS7SO
37.433,-117.042,EB45L9
37.59,-117.572,D4TA9L
37.1,-117.045,K9ZZOA
37.461,-116.836,J3HFPI
37.745,-116.979,35HS52
37.726,-116.697,247DZA
37.675,-116.888,A01CV4
37.554,-117.55,V02C86
37.197,-117.213,6GFYYP
37.572,-117.543,RSISRD
37.834,-116.798,PMY0FY
37.179,-116.792,W9LYE8
37.352,-117.121,W8LBR1
37.168,-117.106,7E0RRM
37.337,-117.056,OFB93A
37.394,-116.846,29OWWF
37.062,-116.975,PPU1WP
37.546,-117.093,6BZUMS
37.996,-118.032,KGCWSO
37.792,-118.128,BT7OPR
37.19,-116.84,ZHPWIY
37.543,-117.407,Z4W7TA
37.664,-117.194,TJ0NVG
37.422,-117.918,VWZ6JX
37.676,-117.04,9POAQN
37.302,-117.777,GMXGHX
37.786,-117.329,D9VJG1
37.448,-117.44,C1YB9T
37.37,-116.991,BRLN73
37.521,-116.844,PQNZBU
37.82,-117.029,XBEWWE
37.192,-116.773,WAUFSW
37.262,-116.769,MN6V7T
37.597,-117.185,M5J6C9
37.127,-116.788,AVM41Y
37.822,-116.781,DUFV9X
37.81,-117.322,30JRQP
37.715,-116.648,L01Q98
37.364,-118.155,JIDR53
38.01,-117.836,2VA0GL
37.833,-117.115,CEVB5O
37.281,-118.251,ZYV062
37.305,-117.216,HHR93H
37.99,-118.156,E3FAGZ
37.598,-116.877,U3MI8I
37.652,-116.865,TDC6O9
37.8,-117.41,SF80KI
37.737,-118.117,N40JYT
37.937,-116.577,XGNTMV
37.542,-116.89,LH0XNN
37.853,-117.11,0UPGNV
37.547,-117.926,0RR6L9
37.857,-116.918,FFLHUL
37.565,-117.081,ZWVP58
37.436,-117.096,H99AD3
37.188,-118.114,GUASON
37.575,-117.908,5YCKN6
37.178,-117.191,5PH5YF
37.77,-116.678,MW53PX
37.589,-117.125,QZBWH8
37.98,-117.538,GWOMT9
37.84,-116.972,IATF4M
37.691,-116.989,LZ8XN3
37.066,-117.235,9KHKX1
37.825,-117.276,9OSQT6
37.373,-117.071,7SUD2G
37.615,-117.184,3SVSSU
37.724,-116.979,2VHQX4
37.334,-117.223,IZ2KG7
37.434,-117.1,U6W82B
37.613,-117.17,BZDNTV
37.329,-117.018,Y8HTAB
37.35,-117.11,A31KC5
37.524,-117.131,71IXXU
37.348,-117.032,CJKA34
37.709,-117.084,CPEU6C
37.672,-117.046,JJCCON
37.627,-116.93,ATMJVN
37.391,-117.831,IW4SN1
37.799,-117.197,7SPKCH
37.716,-118.13,O127TE
37.727,-116.645,I57CGB
37.47,-117.25,IAOI8I
37.351,-117.042,X0VF05
37.299,-117.078,XBSWEB
37.705,-116.893,X3QOFL
37.952,-116.566,2XAXJD
37.27,-117.028,I1F9FK
37.459,-117.651,2PJKQ0
37.074,-117.038,FMMEV7
37.433,-117.116,GU3NAB
37.189,-116.954,YVK3JM
37.329,-117.066,NVAUZP
37.24,-116.976,WV1DDO
37.606,-117.567,JGRXUZ
37.833,-118.154,0X85ZR
37.065,-117.728,BYOY1A
37.761,-117.083,FMCOTL
37.314,-117.106,OUXF6W
37.197,-117.096,1RX2Y6
37.389,-117.488,KL7BDM
37.529,-117.42,N6O4WL
37.144,-117.047,L0UYEA
37.392,-117.243,AWHJEF
37.798,-118.157,AYTRTD
37.091,-117.282,23M3ZO
37.937,-116.572,Q3CUOS
37.63,-117.717,H6DHMJ
37.951,-118.049,UAWFQI
37.192,-116.977,KMMQNN
37.678,-117.703,ZLXOL4
37.402,-117.506,L5E9GS
37.731,-118.114,6183I5
37.206,-116.839,PVCIMY
37.253,-118.075,H177WF
37.862,-117.122,S1Q64H
37.78,-116.971,VEHXNU
37.783,-116.717,URF5NY
37.447,-117.294,GEH85D
37.167,-117.11,3I4PVL
37.435,-117.097,YAOBTP
37.197,-117.141,AQ6D7T
37.605,-116.692,4PK5ZI
37.362,-117.046,8LG2ZB
37.621,-117.629,J5NHKP
37.993,-118.016,UTTRXS
37.115,-116.738,2LRNV2
37.096,-117.279,H1NSSP
37.805,-116.959,Y9BQ49
37.391,-116.977,D3Y421
37.085,-116.628,IHVCM1
37.329,-117.149,RVOQAB
37.276,-117.752,ISEC1I
37.657,-117.729,DTAV22
37.728,-116.658,317033
37.47,-116.619,NOFFAW
37.795,-117.204,9I0JH0
37.141,-116.843,9COP5P
37.156,-117.341,U2PUL7
37.095,-117.283,RSIZRH
37.421,-116.876,ASDFJE
37.929,-117.636,Z1SWNY
37.347,-117.127,DRBNGE
37.285,-117.782,3YHKTK
37.32,-117.013,37H98E
37.516,-117.429,5RHVLO
37.182,-117.184,0FVCCN
37.646,-116.69,HJYM50
37.949,-116.601,CZZ0RC
37.111,-117.061,X0330Z
37.186,-117.586,8KUAS8
37.858,-117.13,ZDPZ8Z
37.489,-117.253,ADYWMG
37.11,-116.819,5JDKUY
37.132,-116.798,H1Q52J
37.536,-116.83,PSTTIS
37.593,-117.193,4T91NB
37.44,-117.092,FDIYL8
37.118,-117.025,MEIE25
37.888,-117.465,X7PKMJ
37.772,-117.064,7DCSW5
37.647,-117.23,ZJY2I3
37.247,-117.203,XBB67B
37.816,-117.173,GCXQ8P
37.625,-116.862,446A04
37.6,-117.725,2WDXYT
37.432,-117.477,2TXVGZ
37.694,-118.108,JKVKDH
37.315,-117.076,WP0XHT
37.135,-116.793,1IDPZC
37.288,-117.074,AHSZWB
37.623,-117.522,R4WWSK
37.636,-117.145,AVR2EA
37.08,-116.733,4PXIZ1
37.291,-117.089,NG9GTC
37.841,-117.106,6QIPVK
37.607,-117.566,PRYYNG
37.837,-116.95,X9CTRA
37.075,-116.724,WA04TV
37.584,-116.696,8LILF0
37.621,-116.911,RUZJLL
37.53,-116.604,DRO22K
37.813,-117.319,9BTR76
37.617,-117.952,B2XZ35
37.833,-116.963,TNHWIK
37.184,-116.807,UJGOUZ
37.956,-117.433,3EE31E
37.785,-117.195,4CUQHJ
37.111,-116.704,Y6AVCH
37.832,-117.334,PPPP5V
37.598,-117.147,19OWRX
37.392,-117.493,74XKRF
37.309,-118.146,COGPUM
37.781,-118.12,QJD995
37.085,-117.311,CVZ48B
37.111,-116.816,808100
37.065,-117.041,OIYJVL
37.154,-116.81,HHKQXY
37.619,-116.703,J50134
37.75,-117.371,PCG1A7
37.339,-117.171,VB3CUA
37.277,-117.953,7OVHWT
37.769,-117.379,G4HTK5
37.225,-117.216,U73YJH
37.609,-117.8,ZDKKCA
37.548,-116.706,2QOWQF
37.747,-116.978,C9EILO
37.143,-117.042,MGAFRW
37.376,-116.84,FL7MJV
37.286,-117.765,M8ACX8
37.723,-116.986,97CFNT
37.444,-116.626,5QFPAB
37.708,-118.375,T6K49T
37.601,-116.961,UPZXUK
37.781,-116.972,SDC75C
37.41,-117.829,7XWPN4
37.631,-117.817,Q20OWC
37.699,-118.024,RLN2PM
37.4,-117.464,LP7LSW
37.67,-117.824,P1VZJR
37.331,-116.92,D1XDRY
37.91,-116.57,BG2TAX
37.122,-116.843,MHDIE4
37.141,-116.667,8KR6GR
37.874,-117.443,YFD4ZT
37.342,-116.745,Z9UTDG
37.65,-117.041,1T02NA
37.629,-117.697,5H2OH3
37.725,-116.647,OXB3Y8
37.946,-117.127,XJ7T24
37.464,-117.428,TLLREE
37.206,-116.936,J1VI82
37.618,-117.56,Y1EZHV
37.118,-116.682,LWKRAX
37.789,-116.967,2KEBT3
37.312,-117.194,N4UDX2
37.745,-118.148,R2TSQ9
37.181,-116.856,DN4MEF
37.755,-116.698,7TWLWH
37.8,-118.136,5MZ10P
37.693,-117.052,PW25ED
37.112,-116.769,DBAQZ5
37.396,-116.966,L1F9ZW
37.781,-116.795,2Z70XC
37.686,-117.724,YZ0T48
37.869,-117.551,CNAZC5
37.686,-118.019,O5WNGQ
37.628,-116.635,DLZKYE
37.337,-117.141,3MELXX
37.44,-116.919,PJZK18
37.114,-116.836,CGVA41
37.489,-116.733,NEGSI5
37.068,-116.833,O2PFWC
37.172,-116.846,Z61R33
37.088,-116.7,E2FKAD
37.095,-116.739,98L798
37.592,-117.164,ZS207S
37.457,-117.144,BSN94Z
37.165,-116.857,34V4K8
37.756,-116.65,82AYNA
37.631,-117.215,MVPO7V
37.106,-117.242,XZEHT0
37.187,-117.095,LYXBUR
37.123,-116.818,UABRAZ
37.459,-116.836,LSNTWM
37.603,-117.113,C81X43
37.231,-117.143,WZMXHJ
37.212,-116.61,KU8TJ9
37.811,-116.904,D0SJDG
37.629,-116.884,SZZI61
37.41,-117.014,GIJ5J2
37.121,-117.222,ONOBKV
37.09,-117.01,3PN1Q3
37.673,-117.304,B3GAVD
37.535,-117.424,I4I6GP
37.171,-116.935,1UZD52
37.549,-117.079,CPK8FR
37.314,-116.744,30V24I
37.319,-117.77,OE82SE
37.392,-117.064,HNKMO4
37.396,-117.043,836XIU
37.527,-116.847,HDL5DR
37.493,-116.653,VMTNBT
37.823,-117.197,5JW5V1
37.112,-117.557,UEM6BZ
37.381,-117.112,RFWF81
37.331,-117.15,RP8U5P
37.302,-117.202,MNTOKO
37.408,-117.041,CLIHOG
37.14,-116.702,51KG9D
37.863,-116.926,XR5CG0
37.23,-116.964,OOS6HS
37.248,-117.054,6AGQQJ
37.072,-117.726,UH9J7O
37.758,-118.127,306TFP
37.587,-117.363,QJPLV3
37.811,-117.201,JMZK3R
37.387,-116.953,30MIFI
37.776,-117.186,GRLGNJ
37.398,-117.055,ESNOWA
37.215,-116.924,TVD5MJ
37.528,-116.681,5AJ6FE
37.618,-116.865,O67R6S
37.585,-117.143,4DLGID
37.157,-116.881,LCVWT3
37.18,-116.818,GKUKIK
37.728,-116.988,SJSCH4
37.526,-116.847,S0HI11
37.204,-116.96,ZQ5EWE
37.491,-116.629,AWUPG8
37.638,-117.865,S440M7
37.797,-117.851,AU4B9H
37.974,-117.496,ZE6GZR
37.252,-117.236,USVA7F
37.306,-117.761,COOLXD
37.231,-117.129,S0BG3H
37.432,-117.044,5KXAFG
37.068,-116.716,1JG1LP
37.694,-116.595,GHVVW3
37.53,-116.885,W1FV5O
37.753,-118.121,VBZ6VZ
37.132,-117.047,6OYU7B
37.522,-116.714,11JOIP
37.74,-117.487,6YC5JM
37.396,-117.508,2GD9XC
37.796,-116.793,8QTLT8
37.146,-116.791,4FM6Q1
37.143,-117.277,WOON89
37.82,-117.381,TU8PL3
37.757,-116.652,JLDZKS
37.434,-116.679,2MIWI6
37.623,-117.069,ITMUE2
37.965,-117.136,ARI77G
37.833,-116.81,756UG9
37.065,-117.043,7W2CIU
37.282,-117.053,VOOQ1Y
37.645,-116.701,4ZRE20
37.336,-117.059,D0AS4Y
37.824,-117.033,17K75D
37.827,-117.029,BBEPZO
37.807,-118.115,XUNQPM
37.881,-118.257,G1KM9N
37.089,-117.278,XMIYI3
37.395,-116.873,CHDBW2
37.847,-116.945,K9M9CV
37.387,-116.879,6C5OI4
37.124,-116.851,SRVYCV
37.178,-116.815,NOZ4LW
37.262,-117.2,642GJQ
37.424,-117.219,OJLYQK
37.618,-117.154,CB33OF
37.352,-116.598,19995L
37.851,-118.128,93K4CS
37.36,-118.214,V6DDJ7
37.899,-116.897,RVE70H
37.522,-117.206,DG71VX
37.785,-116.79,RYWJGC
37.596,-117.186,K5A81Z
37.392,-116.954,1XOTCT
37.764,-117.086,F6K9O3
37.722,-118.109,RCS414
37.589,-117.125,USSNNB
37.147,-117.276,Q6M0SA
37.784,-116.748,79E0F1
37.634,-117.99,VKPKEF
37.102,-117.051,C4OP0G
37.631,-117.063,67LT0S
37.334,-117.105,2M8VTJ
37.75,-118.108,7F1FLN
37.788,-117.353,SC44QG
37.604,-117.958,D87111
37.815,-116.726,C4F35N
37.283,-117.082,8N14AJ
37.135,-116.69,QNKRXN
37.187,-116.847,F345L5
37.818,-118.208,S8RQ0U
37.81,-116.736,R5LK9N
37.209,-116.671,7HFUWF
37.086,-117.249,5PZZR8
37.165,-117.191,SYM6J2
37.094,-117.195,8ISPTV
37.25,-117.113,51G3SM
37.268,-116.975,ZIC92A
37.843,-116.888,OKMFLA
37.618,-117.945,EDECS5
37.487,-116.765,Z97E48
37.398,-116.872,TG8II6
37.353,-117.117,CN68GS
37.862,-118.015,03OTC6
37.068,-116.712,2BMZ0E
37.312,-117.095,1VWV8E
37.915,-117.447,E4EP0R
37.14,-117.086,CAX1QA
37.345,-117.081,I38WL8
38.009,-118.302,GKDD1B
37.735,-117.472,PURFZW
37.461,-116.805,BG8LEP
37.066,-117.247,SD4FNE
37.44,-117.089,J5CW1S
37.14,-116.659,Y3TXXZ
37.689,-118.022,DABXMQ
37.198,-116.837,1MBCEG
37.728,-116.995,APK2G2
37.045,-116.899,P2429X
37.51,-117.145,WZ92FD
37.816,-116.793,K4YJ2H
37.378,-117.823,FO171B
37.15,-117.804,DJX425
37.672,-116.7,HBHPI1
37.558,-117.059,SJL5FJ
37.856,-117.331,L8VZMH
37.073,-117.288,91G9LL
37.835,-117.348,4RXT6D
37.754,-117.467,VTWZ9S
37.074,-116.81,PR1QOR
37.798,-117.402,BZ4R65
37.749,-117.836,7OD75J
37.677,-116.869,H4K8I9
37.491,-117.296,NGYNLJ
37.174,-117.213,VNMGG5
37.678,-116.864,TN2I5I
37.042,-117.035,INNDZW
37.629,-117.087,YDUNQC
37.752,-116.763,6O0TXA
37.116,-117.041,DNW3LH
37.449,-117.395,B8FE33
37.195,-117.233,J8OPML
37.733,-118.139,MEMS7P
37.054,-117.209,MEPYW6
37.193,-116.804,BV6561
37.442,-117.112,LHBHYI
37.851,-118.143,BC3IWX
37.54,-117.112,SS8T4I
37.357,-117.071,0580XW
37.579,-117.927,RL3RS2
37.797,-117.305,CI0KO8
37.074,-117.335,KXH2K6
37.736,-118.152,OFI1W0
37.431,-117.048,UJA9YO
37.087,-117.289,AVOAUA
37.418,-117.674,IUAXW5
38.004,-118.378,FU2MCR
37.122,-117.235,MFZA88
37.569,-117.147,VRGUMH
37.171,-117.093,MFKY60
37.265,-116.982,76HKCZ
37.48,-117.003,JRTA6T
37.949,-116.563,6MNGHT
37.17,-117.246,3AEPP1
37.335,-117.139,FN69Z5
37.581,-117.917,ZEU5MJ
37.811,-117.351,NF7XWK
37.179,-117.22,ZT8BPU
37.175,-117.195,JRZEJZ
37.191,-117.138,A46E51
37.54,-117.128,2AENLN
37.265,-117.951,XQWWDN
37.322,-117.186,Y3MG7E
37.15,-116.856,MS5EMK
37.6,-117.663,VJCPNZ
37.202,-116.788,KK23V7
37.762,-118.414,5IZOC7
37.05,-116.885,AOC4FA
37.753,-116.665,ZK6HQY
37.799,-118.112,EEN53N
37.748,-116.673,P0V5T1
37.92,-116.608,D43118
37.843,-116.966,RZOL03
37.573,-117.156,WVRPPL
37.164,-116.857,1XRFVK
37.324,-117.013,0BRHI6
37.343,-117.034,KGEV09
37.649,-117.551,UZN6DV
37.156,-116.883,D2CUNN
37.161,-117.155,IJGNBB
37.674,-117.019,LWEVSN
37.231,-117.188,IUU75R
37.178,-117.218,B119YA
37.427,-117.794,AUH2DW
37.163,-117.117,6DRA7G
37.348,-117.084,K36QEQ
37.072,-117.244,96RSMO
37.827,-116.777,FPWBHV
37.633,-116.867,PIHBY9
37.741,-117.38,LZAH4R
37.42,-117.128,K2RPGS
37.331,-117.149,Q89CR6
37.316,-117.075,RW6KUE
37.679,-116.949,GH9SJ3
37.364,-116.876,5QEB7H
37.467,-117.173,HPOU0X
37.333,-117.042,VU0RU7
37.74,-118.144,7CZ3M5
37.797,-118.428,8X7BIS
37.158,-116.738,CM9YU6
37.152,-116.798,6WC4RO
37.66,-117.062,F8XXJE
37.629,-117.065,Q6DESV
37.348,-117.069,9NKBGK
37.612,-117.563,WBSF1H
37.099,-117.298,ZAKTST
37.2,-116.823,8INPD4
37.2,-116.954,JAEUOP
37.673,-116.931,GRTZAL
37.227,-117.149,OV4J8V
37.658,-117.333,Q69KQW
37.774,-117.085,A3ES3M
37.582,-116.854,152JHH
37.135,-116.663,W0DHVG
37.293,-117.014,MD8YOP
37.72,-117.025,6DYUAF
37.329,-117.136,G529P8
37.75,-116.633,JAF0S7
37.813,-117.134,GAHRZK
37.467,-116.957,2UFZ2I
37.636,-116.685,6WXFOC
37.157,-116.881,U3ZTYF
37.633,-117.144,A5Y1II
37.344,-117.087,HN6DMV
37.725,-117.052,5QT408
37.695,-116.626,ASJT4H
37.336,-117.123,LNZ0SK
37.757,-117.415,SOVJX0
37.12,-117.204,G0UJ6Y
37.739,-116.673,WH5A1B
37.209,-117.273,AB9KG7
37.441,-117.113,297UYW
37.763,-116.785,O7V3NU
37.176,-117.077,9XA061
37.334,-117.045,NF6KJE
37.132,-117.177,PTOT9Q
37.583,-116.838,7JE57T
37.343,-117.042,H5TEND
37.251,-117.075,5L6VL8
37.613,-117.166,AXJSE5
37.898,-117.119,00SCL3
37.073,-116.892,N3INSK
37.4,-117.162,D0688L
37.211,-116.802,O7M9PI
37.348,-117.127,KD7W7R
37.12,-116.772,R0056T
37.666,-116.872,ZI1L0O
37.833,-116.97,9HKEF9
37.133,-116.644,4G0P3G
37.054,-116.759,A8MN93
37.67,-117.013,4LEMGH
37.101,-117.309,1LL9PJ
37.447,-117.104,MJJ5EF
37.917,-116.592,BG2708
37.434,-117.888,AKPZQM
